{
  "id": 220,
  "number": "73B",
  "name": "C.Congressos (circ.)",
  "visible": true,
  "creationDate": "2020-05-20T16:36:37.000Z",
  "circular": true,
  "variants": [
    {
      "id": 19869,
      "variant": 0,
      "active": true,
      "iteneraries": [
        {
          "id": 20454,
          "type": "CIRC",
          "direction": "CIRC",
          "connections": [
            {
              "id": 38253,
              "order": 36,
              "distance": 0,
              "stop": {
                "id": 50210,
                "publicId": "9513",
                "name": "Centro Congressos",
                "position": {
                  "latitude": 38.699664,
                  "longitude": -9.183737
                },
                "visible": false,
                "updateDate": "2019-02-27T20:47:42.067Z"
              }
            },
            {
              "id": 38254,
              "order": 2,
              "distance": 383,
              "stop": {
                "id": 9504,
                "publicId": "9504",
                "name": "R. Junqueira (Centro Congresso",
                "position": {
                  "latitude": 38.699786,
                  "longitude": -9.184346
                },
                "visible": true,
                "updateDate": "2019-01-16T09:01:14.000Z"
              }
            },
            {
              "id": 38255,
              "order": 3,
              "distance": 289,
              "stop": {
                "id": 9506,
                "publicId": "9506",
                "name": "Hosp. Egas Moniz",
                "position": {
                  "latitude": 38.698464,
                  "longitude": -9.18838
                },
                "visible": true,
                "updateDate": "2019-01-16T09:02:01.000Z"
              }
            },
            {
              "id": 38256,
              "order": 4,
              "distance": 278,
              "stop": {
                "id": 9512,
                "publicId": "9512",
                "name": "R. Pinto Ferreira",
                "position": {
                  "latitude": 38.698225,
                  "longitude": -9.191353
                },
                "visible": true,
                "updateDate": "2019-01-16T09:02:40.000Z"
              }
            },
            {
              "id": 38257,
              "order": 5,
              "distance": 344,
              "stop": {
                "id": 9510,
                "publicId": "9510",
                "name": "Tv. Artur Lamas",
                "position": {
                  "latitude": 38.70012,
                  "longitude": -9.191825
                },
                "visible": true,
                "updateDate": "2019-01-16T09:02:21.000Z"
              }
            },
            {
              "id": 38258,
              "order": 6,
              "distance": 395,
              "stop": {
                "id": 50379,
                "publicId": "13415",
                "name": "R. Giestal",
                "position": {
                  "latitude": 38.700685,
                  "longitude": -9.190057
                },
                "visible": true,
                "updateDate": "2019-02-13T09:09:24.000Z"
              }
            },
            {
              "id": 38259,
              "order": 7,
              "distance": 256,
              "stop": {
                "id": 50377,
                "publicId": "13413",
                "name": "Tv. Giestal",
                "position": {
                  "latitude": 38.701719,
                  "longitude": -9.19083
                },
                "visible": true,
                "updateDate": "2019-02-13T09:09:24.000Z"
              }
            },
            {
              "id": 38260,
              "order": 8,
              "distance": 248,
              "stop": {
                "id": 50371,
                "publicId": "13411",
                "name": "R. D. João Castro",
                "position": {
                  "latitude": 38.705045,
                  "longitude": -9.189897
                },
                "visible": true,
                "updateDate": "2019-02-13T09:09:24.000Z"
              }
            },
            {
              "id": 38261,
              "order": 9,
              "distance": 240,
              "stop": {
                "id": 50369,
                "publicId": "12015",
                "name": "Tv. Fornos / R. Cruzeiro",
                "position": {
                  "latitude": 38.706247,
                  "longitude": -9.189766
                },
                "visible": true,
                "updateDate": "2019-02-13T09:09:24.000Z"
              }
            },
            {
              "id": 38262,
              "order": 10,
              "distance": 285,
              "stop": {
                "id": 50392,
                "publicId": "12017",
                "name": "R. Cruzeiro / R. Eng. António",
                "position": {
                  "latitude": 38.70588,
                  "longitude": -9.188157
                },
                "visible": true,
                "updateDate": "2019-03-20T12:23:23.000Z"
              }
            },
            {
              "id": 38263,
              "order": 11,
              "distance": 278,
              "stop": {
                "id": 50376,
                "publicId": "12016",
                "name": "R. João Barros",
                "position": {
                  "latitude": 38.705686,
                  "longitude": -9.184897
                },
                "visible": true,
                "updateDate": "2019-02-13T09:09:24.000Z"
              }
            },
            {
              "id": 38264,
              "order": 12,
              "distance": 273,
              "stop": {
                "id": 12005,
                "publicId": "12005",
                "name": "R. Luis Camões",
                "position": {
                  "latitude": 38.704103,
                  "longitude": -9.182767
                },
                "visible": true,
                "updateDate": "2019-01-16T09:04:19.000Z"
              }
            },
            {
              "id": 38265,
              "order": 13,
              "distance": 157,
              "stop": {
                "id": 12113,
                "publicId": "12113",
                "name": "R. Lusíadas",
                "position": {
                  "latitude": 38.705329,
                  "longitude": -9.18028
                },
                "visible": true,
                "updateDate": "2019-01-16T09:57:53.000Z"
              }
            },
            {
              "id": 38266,
              "order": 14,
              "distance": 288,
              "stop": {
                "id": 12104,
                "publicId": "12104",
                "name": "R. Leão Oliveira",
                "position": {
                  "latitude": 38.705204,
                  "longitude": -9.178772
                },
                "visible": true,
                "updateDate": "2019-07-16T15:27:49.133Z"
              }
            },
            {
              "id": 38267,
              "order": 15,
              "distance": 480,
              "stop": {
                "id": 12105,
                "publicId": "12105",
                "name": "Calvário",
                "position": {
                  "latitude": 38.705392,
                  "longitude": -9.176306
                },
                "visible": true,
                "updateDate": "2019-01-16T09:07:00.000Z"
              }
            },
            {
              "id": 38268,
              "order": 16,
              "distance": 526,
              "stop": {
                "id": 9415,
                "publicId": "9415",
                "name": "Alcântara - Av. De Ceuta",
                "position": {
                  "latitude": 38.707253,
                  "longitude": -9.173531
                },
                "visible": true,
                "updateDate": "2019-01-16T08:57:31.000Z"
              }
            },
            {
              "id": 38269,
              "order": 17,
              "distance": 375,
              "stop": {
                "id": 9416,
                "publicId": "9416",
                "name": "Qta. Jacinto",
                "position": {
                  "latitude": 38.708097,
                  "longitude": -9.176534
                },
                "visible": true,
                "updateDate": "2019-07-16T15:34:00.080Z"
              }
            },
            {
              "id": 38270,
              "order": 18,
              "distance": 205,
              "stop": {
                "id": 50387,
                "publicId": "9429",
                "name": "Av. Ceuta",
                "position": {
                  "latitude": 38.707251,
                  "longitude": -9.174161
                },
                "visible": true,
                "updateDate": "2019-03-13T13:48:54.000Z"
              }
            },
            {
              "id": 38271,
              "order": 19,
              "distance": 115,
              "stop": {
                "id": 50373,
                "publicId": "9423",
                "name": "R. Cruz Alcântara",
                "position": {
                  "latitude": 38.709052,
                  "longitude": -9.174364
                },
                "visible": true,
                "updateDate": "2019-02-13T09:09:24.000Z"
              }
            },
            {
              "id": 38272,
              "order": 20,
              "distance": 109,
              "stop": {
                "id": 50388,
                "publicId": "9430",
                "name": "R. Feliciano Sousa",
                "position": {
                  "latitude": 38.709182,
                  "longitude": -9.175375
                },
                "visible": true,
                "updateDate": "2019-03-13T13:48:54.000Z"
              }
            },
            {
              "id": 38273,
              "order": 21,
              "distance": 131,
              "stop": {
                "id": 9424,
                "publicId": "9424",
                "name": "Tv. Sebeiro",
                "position": {
                  "latitude": 38.708501,
                  "longitude": -9.175925
                },
                "visible": false,
                "updateDate": "2019-02-27T20:47:42.067Z"
              }
            },
            {
              "id": 38274,
              "order": 22,
              "distance": 164,
              "stop": {
                "id": 50374,
                "publicId": "9427",
                "name": "R. Alvito",
                "position": {
                  "latitude": 38.707499,
                  "longitude": -9.175185
                },
                "visible": true,
                "updateDate": "2019-02-13T09:09:24.000Z"
              }
            },
            {
              "id": 38275,
              "order": 23,
              "distance": 381,
              "stop": {
                "id": 50375,
                "publicId": "9428",
                "name": "Av. Ceuta",
                "position": {
                  "latitude": 38.707227,
                  "longitude": -9.174161
                },
                "visible": true,
                "updateDate": "2019-02-13T09:09:24.000Z"
              }
            },
            {
              "id": 38276,
              "order": 24,
              "distance": 126,
              "stop": {
                "id": 12110,
                "publicId": "12110",
                "name": "R. Alcântara",
                "position": {
                  "latitude": 38.706207,
                  "longitude": -9.175552
                },
                "visible": true,
                "updateDate": "2019-01-16T09:14:13.000Z"
              }
            },
            {
              "id": 38277,
              "order": 25,
              "distance": 240,
              "stop": {
                "id": 12122,
                "publicId": "12122",
                "name": "Calvario",
                "position": {
                  "latitude": 38.705378,
                  "longitude": -9.17654
                },
                "visible": true,
                "updateDate": "2019-01-16T09:59:12.000Z"
              }
            },
            {
              "id": 38278,
              "order": 26,
              "distance": 245,
              "stop": {
                "id": 12103,
                "publicId": "12103",
                "name": "R. Lusíadas / R. Leão Oliveira",
                "position": {
                  "latitude": 38.705743,
                  "longitude": -9.17819
                },
                "visible": false,
                "updateDate": "2019-02-27T20:47:42.067Z"
              }
            },
            {
              "id": 38279,
              "order": 27,
              "distance": 267,
              "stop": {
                "id": 12114,
                "publicId": "12114",
                "name": "R. Lusíadas",
                "position": {
                  "latitude": 38.705178,
                  "longitude": -9.180951
                },
                "visible": true,
                "updateDate": "2019-01-16T09:58:19.000Z"
              }
            },
            {
              "id": 38280,
              "order": 28,
              "distance": 269,
              "stop": {
                "id": 12004,
                "publicId": "12004",
                "name": "R. Luis Camões",
                "position": {
                  "latitude": 38.704527,
                  "longitude": -9.183044
                },
                "visible": true,
                "updateDate": "2019-01-16T09:03:51.000Z"
              }
            },
            {
              "id": 38281,
              "order": 29,
              "distance": 249,
              "stop": {
                "id": 12012,
                "publicId": "12012",
                "name": "R. João Barros",
                "position": {
                  "latitude": 38.705487,
                  "longitude": -9.185294
                },
                "visible": true,
                "updateDate": "2019-01-16T09:05:30.000Z"
              }
            },
            {
              "id": 38282,
              "order": 30,
              "distance": 186,
              "stop": {
                "id": 12006,
                "publicId": "12006",
                "name": "Alto Sto. Amaro",
                "position": {
                  "latitude": 38.705118,
                  "longitude": -9.187653
                },
                "visible": true,
                "updateDate": "2019-01-16T09:04:41.000Z"
              }
            },
            {
              "id": 38283,
              "order": 31,
              "distance": 136,
              "stop": {
                "id": 12008,
                "publicId": "12008",
                "name": "R. Aliança Operária",
                "position": {
                  "latitude": 38.704407,
                  "longitude": -9.189588
                },
                "visible": true,
                "updateDate": "2019-01-16T09:05:09.000Z"
              }
            },
            {
              "id": 38284,
              "order": 32,
              "distance": 231,
              "stop": {
                "id": 13406,
                "publicId": "13406",
                "name": "Rio Seco",
                "position": {
                  "latitude": 38.703703,
                  "longitude": -9.190873
                },
                "visible": true,
                "updateDate": "2019-01-16T09:59:45.000Z"
              }
            },
            {
              "id": 38285,
              "order": 33,
              "distance": 240,
              "stop": {
                "id": 50378,
                "publicId": "13414",
                "name": "Tv. Giestal",
                "position": {
                  "latitude": 38.703104,
                  "longitude": -9.191003
                },
                "visible": true,
                "updateDate": "2019-02-13T09:09:24.000Z"
              }
            },
            {
              "id": 38286,
              "order": 34,
              "distance": 370,
              "stop": {
                "id": 50380,
                "publicId": "13416",
                "name": "Cç. Boa-Hora",
                "position": {
                  "latitude": 38.699981,
                  "longitude": -9.190462
                },
                "visible": true,
                "updateDate": "2019-02-13T09:09:24.000Z"
              }
            },
            {
              "id": 38287,
              "order": 35,
              "distance": 372,
              "stop": {
                "id": 9505,
                "publicId": "9505",
                "name": "Hosp. Egas Moniz",
                "position": {
                  "latitude": 38.698591,
                  "longitude": -9.187396
                },
                "visible": true,
                "updateDate": "2019-01-16T09:01:37.000Z"
              }
            },
            {
              "id": 46186,
              "order": 1,
              "distance": 535,
              "stop": {
                "id": 50210,
                "publicId": "9513",
                "name": "Centro Congressos",
                "position": {
                  "latitude": 38.699664,
                  "longitude": -9.183737
                },
                "visible": false,
                "updateDate": "2019-02-27T20:47:42.067Z"
              }
            }
          ]
        }
      ]
    }
  ]
}