{
  "id": "798",
  "internalId": 194,
  "name": "C. Grande-Metro - Galinheiras",
  "visible": true,
  "creationDate": "2020-05-21T11:02:00.000Z",
  "circular": false,
  "variants": [
    {
      "id": 20864,
      "variant": 0,
      "active": true,
      "iteneraries": [
        {
          "id": 21507,
          "type": "ASC",
          "direction": "ASC",
          "connections": [
            {
              "id": 45679,
              "order": 1,
              "distance": 82,
              "stop": {
                "id": "5841",
                "internalId": 5841,
                "name": "Campo Grande-Metro",
                "position": {
                  "latitude": 38.760623,
                  "longitude": -9.157811
                },
                "visible": true,
                "updateDate": "2014-03-03T12:23:53.000Z"
              }
            },
            {
              "id": 45680,
              "order": 2,
              "distance": 230,
              "stop": {
                "id": "5824",
                "internalId": 5824,
                "name": "Campo Grande (Metro)",
                "position": {
                  "latitude": 38.760339,
                  "longitude": -9.157123
                },
                "visible": true,
                "updateDate": "2019-02-13T17:55:38.000Z"
              }
            },
            {
              "id": 45681,
              "order": 3,
              "distance": 470,
              "stop": {
                "id": "5803",
                "internalId": 5803,
                "name": "Campo Grande Norte",
                "position": {
                  "latitude": 38.75911,
                  "longitude": -9.155655
                },
                "visible": true,
                "updateDate": "2014-10-16T09:12:03.000Z"
              }
            },
            {
              "id": 45682,
              "order": 4,
              "distance": 184,
              "stop": {
                "id": "5839",
                "internalId": 5839,
                "name": "Rua Agostinho Neto",
                "position": {
                  "latitude": 38.761764,
                  "longitude": -9.153835
                },
                "visible": true,
                "updateDate": "2008-12-05T17:51:30.000Z"
              }
            },
            {
              "id": 45683,
              "order": 5,
              "distance": 204,
              "stop": {
                "id": "5832",
                "internalId": 5832,
                "name": "Rua Agostinho Neto",
                "position": {
                  "latitude": 38.763235,
                  "longitude": -9.153458
                },
                "visible": true,
                "updateDate": "2008-12-05T17:49:44.000Z"
              }
            },
            {
              "id": 45684,
              "order": 6,
              "distance": 186,
              "stop": {
                "id": "5837",
                "internalId": 5837,
                "name": "Rua Amílcar Cabral",
                "position": {
                  "latitude": 38.764831,
                  "longitude": -9.152828
                },
                "visible": true,
                "updateDate": "2008-12-05T17:54:43.000Z"
              }
            },
            {
              "id": 45685,
              "order": 7,
              "distance": 184,
              "stop": {
                "id": "5838",
                "internalId": 5838,
                "name": "Alto Do Lumiar - Parque Europa",
                "position": {
                  "latitude": 38.766451,
                  "longitude": -9.152747
                },
                "visible": true,
                "updateDate": "2008-12-05T13:13:23.000Z"
              }
            },
            {
              "id": 45686,
              "order": 8,
              "distance": 484,
              "stop": {
                "id": "11518",
                "internalId": 50154,
                "name": "Av. Helena Vieira Da Silva",
                "position": {
                  "latitude": 38.76688,
                  "longitude": -9.151035
                },
                "visible": true,
                "updateDate": "2012-12-13T16:30:55.000Z"
              }
            },
            {
              "id": 45687,
              "order": 9,
              "distance": 1015,
              "stop": {
                "id": "11503",
                "internalId": 11503,
                "name": "Alta De Lisboa - Qta Conchas",
                "position": {
                  "latitude": 38.769864,
                  "longitude": -9.148551
                },
                "visible": true,
                "updateDate": "2014-10-15T11:16:54.000Z"
              }
            },
            {
              "id": 45688,
              "order": 10,
              "distance": 164,
              "stop": {
                "id": "11512",
                "internalId": 11512,
                "name": "Rua Helena Vaz Da Silva",
                "position": {
                  "latitude": 38.773239,
                  "longitude": -9.153054
                },
                "visible": true,
                "updateDate": "2014-03-03T14:57:46.000Z"
              }
            },
            {
              "id": 45689,
              "order": 11,
              "distance": 418,
              "stop": {
                "id": "11507",
                "internalId": 11507,
                "name": "Av. Carlos Paredes",
                "position": {
                  "latitude": 38.774247,
                  "longitude": -9.152179
                },
                "visible": true,
                "updateDate": "2019-03-26T17:42:25.000Z"
              }
            },
            {
              "id": 45690,
              "order": 12,
              "distance": 352,
              "stop": {
                "id": "11501",
                "internalId": 11501,
                "name": "Estação Musgueira",
                "position": {
                  "latitude": 38.774614,
                  "longitude": -9.147396
                },
                "visible": false,
                "updateDate": "2019-02-27T20:47:42.067Z"
              }
            },
            {
              "id": 45691,
              "order": 13,
              "distance": 422,
              "stop": {
                "id": "11509",
                "internalId": 11509,
                "name": "Esc. Pintor Almada Negreiros",
                "position": {
                  "latitude": 38.77728,
                  "longitude": -9.146429
                },
                "visible": true,
                "updateDate": "2019-03-26T17:42:46.000Z"
              }
            },
            {
              "id": 45692,
              "order": 14,
              "distance": 308,
              "stop": {
                "id": "6018",
                "internalId": 6018,
                "name": "Vale Castanheira",
                "position": {
                  "latitude": 38.779864,
                  "longitude": -9.148379
                },
                "visible": true,
                "updateDate": "2019-03-21T17:06:22.000Z"
              }
            },
            {
              "id": 45693,
              "order": 15,
              "distance": 254,
              "stop": {
                "id": "6029",
                "internalId": 50156,
                "name": "Pç D. António Ribeiro",
                "position": {
                  "latitude": 38.780489,
                  "longitude": -9.151516
                },
                "visible": true,
                "updateDate": "2019-03-21T12:08:43.000Z"
              }
            },
            {
              "id": 45694,
              "order": 16,
              "distance": 527,
              "stop": {
                "id": "6020",
                "internalId": 6020,
                "name": "Av. Nuno Kruz Abecassis",
                "position": {
                  "latitude": 38.779634,
                  "longitude": -9.151657
                },
                "visible": true,
                "updateDate": "2019-02-14T16:27:41.000Z"
              }
            },
            {
              "id": 45695,
              "order": 17,
              "distance": 329,
              "stop": {
                "id": "11511",
                "internalId": 11511,
                "name": "Esc. Pintor Almada Negreiros",
                "position": {
                  "latitude": 38.77713,
                  "longitude": -9.146463
                },
                "visible": true,
                "updateDate": "2019-03-26T17:43:15.000Z"
              }
            },
            {
              "id": 45696,
              "order": 18,
              "distance": 881,
              "stop": {
                "id": "6016",
                "internalId": 6016,
                "name": "R. Melo Antunes",
                "position": {
                  "latitude": 38.779042,
                  "longitude": -9.144786
                },
                "visible": true,
                "updateDate": "2019-03-21T12:08:04.000Z"
              }
            },
            {
              "id": 45697,
              "order": 19,
              "distance": 222,
              "stop": {
                "id": "6014",
                "internalId": 6014,
                "name": "Igreja Charneca",
                "position": {
                  "latitude": 38.783622,
                  "longitude": -9.142553
                },
                "visible": true,
                "updateDate": "2019-03-20T18:07:07.000Z"
              }
            },
            {
              "id": 45698,
              "order": 20,
              "distance": 227,
              "stop": {
                "id": "6006",
                "internalId": 6006,
                "name": "Campo Amoreiras",
                "position": {
                  "latitude": 38.785447,
                  "longitude": -9.143196
                },
                "visible": true,
                "updateDate": "2019-03-20T18:05:09.000Z"
              }
            },
            {
              "id": 45699,
              "order": 21,
              "distance": 187,
              "stop": {
                "id": "6008",
                "internalId": 6008,
                "name": "Charneca",
                "position": {
                  "latitude": 38.78718,
                  "longitude": -9.144596
                },
                "visible": true,
                "updateDate": "2019-02-14T13:03:11.000Z"
              }
            },
            {
              "id": 45700,
              "order": 22,
              "distance": 257,
              "stop": {
                "id": "6010",
                "internalId": 6010,
                "name": "Qta. Pailepa",
                "position": {
                  "latitude": 38.78788,
                  "longitude": -9.146163
                },
                "visible": true,
                "updateDate": "2019-02-14T16:24:51.000Z"
              }
            },
            {
              "id": 45701,
              "order": 23,
              "distance": 426,
              "stop": {
                "id": "6002",
                "internalId": 6002,
                "name": "R. João Amaral",
                "position": {
                  "latitude": 38.787517,
                  "longitude": -9.149093
                },
                "visible": true,
                "updateDate": "2019-02-14T13:02:32.000Z"
              }
            },
            {
              "id": 45702,
              "order": 24,
              "distance": 240,
              "stop": {
                "id": "11602",
                "internalId": 11602,
                "name": "Estr. Forte (Escola)",
                "position": {
                  "latitude": 38.790396,
                  "longitude": -9.150642
                },
                "visible": true,
                "updateDate": "2019-03-26T17:44:03.000Z"
              }
            },
            {
              "id": 45703,
              "order": 25,
              "distance": 0,
              "stop": {
                "id": "11608",
                "internalId": 11608,
                "name": "Galinheiras",
                "position": {
                  "latitude": 38.79243,
                  "longitude": -9.150246
                },
                "visible": true,
                "updateDate": "2019-03-26T17:44:57.000Z"
              }
            }
          ]
        },
        {
          "id": 21508,
          "type": "DESC",
          "direction": "DESC",
          "connections": [
            {
              "id": 45704,
              "order": 1,
              "distance": 262,
              "stop": {
                "id": "11608",
                "internalId": 11608,
                "name": "Galinheiras",
                "position": {
                  "latitude": 38.79243,
                  "longitude": -9.150246
                },
                "visible": true,
                "updateDate": "2019-03-26T17:44:57.000Z"
              }
            },
            {
              "id": 45705,
              "order": 2,
              "distance": 454,
              "stop": {
                "id": "11601",
                "internalId": 11601,
                "name": "Estr. Forte (Escola)",
                "position": {
                  "latitude": 38.790751,
                  "longitude": -9.150757
                },
                "visible": true,
                "updateDate": "2019-03-26T17:43:49.000Z"
              }
            },
            {
              "id": 45706,
              "order": 3,
              "distance": 284,
              "stop": {
                "id": "6001",
                "internalId": 6001,
                "name": "R. João Amaral",
                "position": {
                  "latitude": 38.787328,
                  "longitude": -9.149174
                },
                "visible": true,
                "updateDate": "2019-03-20T17:58:00.000Z"
              }
            },
            {
              "id": 45707,
              "order": 4,
              "distance": 347,
              "stop": {
                "id": "6003",
                "internalId": 6003,
                "name": "Qta. Pailepa",
                "position": {
                  "latitude": 38.787847,
                  "longitude": -9.145979
                },
                "visible": true,
                "updateDate": "2019-02-14T13:02:48.000Z"
              }
            },
            {
              "id": 45708,
              "order": 5,
              "distance": 262,
              "stop": {
                "id": "6005",
                "internalId": 6005,
                "name": "Charneca",
                "position": {
                  "latitude": 38.78718,
                  "longitude": -9.142513
                },
                "visible": true,
                "updateDate": "2019-03-20T18:04:55.000Z"
              }
            },
            {
              "id": 45709,
              "order": 6,
              "distance": 261,
              "stop": {
                "id": "6009",
                "internalId": 6009,
                "name": "Campo Amoreiras",
                "position": {
                  "latitude": 38.785714,
                  "longitude": -9.142683
                },
                "visible": true,
                "updateDate": "2019-02-14T13:03:28.000Z"
              }
            },
            {
              "id": 45710,
              "order": 7,
              "distance": 858,
              "stop": {
                "id": "6011",
                "internalId": 6011,
                "name": "Igreja Charneca",
                "position": {
                  "latitude": 38.783408,
                  "longitude": -9.142625
                },
                "visible": true,
                "updateDate": "2019-03-20T18:05:59.000Z"
              }
            },
            {
              "id": 45711,
              "order": 8,
              "distance": 339,
              "stop": {
                "id": "6013",
                "internalId": 6013,
                "name": "R. Melo Antunes",
                "position": {
                  "latitude": 38.779201,
                  "longitude": -9.14468
                },
                "visible": true,
                "updateDate": "2019-03-20T18:06:33.000Z"
              }
            },
            {
              "id": 45712,
              "order": 9,
              "distance": 528,
              "stop": {
                "id": "11509",
                "internalId": 11509,
                "name": "Esc. Pintor Almada Negreiros",
                "position": {
                  "latitude": 38.77728,
                  "longitude": -9.146429
                },
                "visible": true,
                "updateDate": "2019-03-26T17:42:46.000Z"
              }
            },
            {
              "id": 45713,
              "order": 10,
              "distance": 108,
              "stop": {
                "id": "6019",
                "internalId": 6019,
                "name": "Av. Nuno Kruz Abecassis",
                "position": {
                  "latitude": 38.779807,
                  "longitude": -9.151581
                },
                "visible": true,
                "updateDate": "2019-02-14T16:26:48.000Z"
              }
            },
            {
              "id": 45714,
              "order": 11,
              "distance": 322,
              "stop": {
                "id": "6030",
                "internalId": 50344,
                "name": "Pç D. António Ribeiro",
                "position": {
                  "latitude": 38.780186,
                  "longitude": -9.151475
                },
                "visible": true,
                "updateDate": "2019-03-21T12:08:54.000Z"
              }
            },
            {
              "id": 45715,
              "order": 12,
              "distance": 734,
              "stop": {
                "id": "6015",
                "internalId": 6015,
                "name": "Vale Castanheira",
                "position": {
                  "latitude": 38.779915,
                  "longitude": -9.148587
                },
                "visible": true,
                "updateDate": "2019-03-21T17:06:19.000Z"
              }
            },
            {
              "id": 45716,
              "order": 13,
              "distance": 232,
              "stop": {
                "id": "11505",
                "internalId": 11505,
                "name": "Estação Musgueira",
                "position": {
                  "latitude": 38.774713,
                  "longitude": -9.149085
                },
                "visible": true,
                "updateDate": "2019-03-11T10:46:02.000Z"
              }
            },
            {
              "id": 45717,
              "order": 14,
              "distance": 221,
              "stop": {
                "id": "11510",
                "internalId": 11510,
                "name": "Av. Carlos Paredes",
                "position": {
                  "latitude": 38.774406,
                  "longitude": -9.151743
                },
                "visible": true,
                "updateDate": "2019-03-26T17:42:59.000Z"
              }
            },
            {
              "id": 45718,
              "order": 15,
              "distance": 1008,
              "stop": {
                "id": "11513",
                "internalId": 11513,
                "name": "Rua Helena Vaz Da Silva",
                "position": {
                  "latitude": 38.773111,
                  "longitude": -9.15322
                },
                "visible": true,
                "updateDate": "2014-03-03T14:58:07.000Z"
              }
            },
            {
              "id": 45719,
              "order": 16,
              "distance": 411,
              "stop": {
                "id": "11504",
                "internalId": 11504,
                "name": "Alta De Lisboa - Qta Conchas",
                "position": {
                  "latitude": 38.768801,
                  "longitude": -9.149068
                },
                "visible": true,
                "updateDate": "2014-10-15T11:17:09.000Z"
              }
            },
            {
              "id": 45720,
              "order": 17,
              "distance": 278,
              "stop": {
                "id": "11519",
                "internalId": 50157,
                "name": "Av. Helena Vieira Da Silva",
                "position": {
                  "latitude": 38.766867,
                  "longitude": -9.151683
                },
                "visible": true,
                "updateDate": "2012-12-13T16:30:46.000Z"
              }
            },
            {
              "id": 45721,
              "order": 18,
              "distance": 178,
              "stop": {
                "id": "5835",
                "internalId": 5835,
                "name": "Rua Manuel Marques",
                "position": {
                  "latitude": 38.766313,
                  "longitude": -9.154179
                },
                "visible": true,
                "updateDate": "2008-12-05T17:11:31.000Z"
              }
            },
            {
              "id": 45722,
              "order": 19,
              "distance": 200,
              "stop": {
                "id": "5836",
                "internalId": 5836,
                "name": "Rua Amílcar Cabral",
                "position": {
                  "latitude": 38.764728,
                  "longitude": -9.153885
                },
                "visible": true,
                "updateDate": "2014-03-03T12:23:41.000Z"
              }
            },
            {
              "id": 45723,
              "order": 20,
              "distance": 177,
              "stop": {
                "id": "5833",
                "internalId": 5833,
                "name": "Rua Agostinho Neto",
                "position": {
                  "latitude": 38.76295,
                  "longitude": -9.1535
                },
                "visible": true,
                "updateDate": "2008-12-05T18:11:31.000Z"
              }
            },
            {
              "id": 45724,
              "order": 21,
              "distance": 462,
              "stop": {
                "id": "5840",
                "internalId": 5840,
                "name": "Rua Agostinho Neto",
                "position": {
                  "latitude": 38.76175,
                  "longitude": -9.154117
                },
                "visible": true,
                "updateDate": "2008-12-05T17:52:45.000Z"
              }
            },
            {
              "id": 45725,
              "order": 22,
              "distance": 0,
              "stop": {
                "id": "5841",
                "internalId": 5841,
                "name": "Campo Grande-Metro",
                "position": {
                  "latitude": 38.760623,
                  "longitude": -9.157811
                },
                "visible": true,
                "updateDate": "2014-03-03T12:23:53.000Z"
              }
            }
          ]
        }
      ]
    },
    {
      "id": 20865,
      "variant": 3,
      "active": true,
      "iteneraries": [
        {
          "id": 21509,
          "type": "ASC",
          "direction": "ASC",
          "connections": [
            {
              "id": 45726,
              "order": 1,
              "distance": 524,
              "stop": {
                "id": "1807",
                "internalId": 1807,
                "name": "Saldanha",
                "position": {
                  "latitude": 38.733918,
                  "longitude": -9.144647
                },
                "visible": true,
                "updateDate": "2011-09-13T16:39:01.000Z"
              }
            },
            {
              "id": 45727,
              "order": 2,
              "distance": 506,
              "stop": {
                "id": "1809",
                "internalId": 1809,
                "name": "Av. Da República",
                "position": {
                  "latitude": 38.738523,
                  "longitude": -9.145875
                },
                "visible": true,
                "updateDate": "2011-09-13T16:39:22.000Z"
              }
            },
            {
              "id": 45728,
              "order": 3,
              "distance": 286,
              "stop": {
                "id": "1901",
                "internalId": 1901,
                "name": "Campo Pequeno",
                "position": {
                  "latitude": 38.742978,
                  "longitude": -9.146744
                },
                "visible": true,
                "updateDate": "2018-02-20T10:24:59.000Z"
              }
            },
            {
              "id": 45729,
              "order": 4,
              "distance": 258,
              "stop": {
                "id": "2021",
                "internalId": 2021,
                "name": "Estação Entrecampos",
                "position": {
                  "latitude": 38.745504,
                  "longitude": -9.147396
                },
                "visible": true,
                "updateDate": "2018-11-02T11:59:27.000Z"
              }
            },
            {
              "id": 45730,
              "order": 5,
              "distance": 252,
              "stop": {
                "id": "2011",
                "internalId": 2011,
                "name": "Entrecampos",
                "position": {
                  "latitude": 38.747783,
                  "longitude": -9.147884
                },
                "visible": true,
                "updateDate": "2018-11-02T11:42:02.000Z"
              }
            },
            {
              "id": 45731,
              "order": 6,
              "distance": 281,
              "stop": {
                "id": "2015",
                "internalId": 2015,
                "name": "Entrecampos Norte",
                "position": {
                  "latitude": 38.749993,
                  "longitude": -9.148346
                },
                "visible": true,
                "updateDate": "2018-11-02T11:42:37.000Z"
              }
            },
            {
              "id": 45732,
              "order": 7,
              "distance": 400,
              "stop": {
                "id": "2017",
                "internalId": 2017,
                "name": "Campo Grande",
                "position": {
                  "latitude": 38.752315,
                  "longitude": -9.149642
                },
                "visible": true,
                "updateDate": "2018-11-02T11:43:10.000Z"
              }
            },
            {
              "id": 45733,
              "order": 8,
              "distance": 399,
              "stop": {
                "id": "5705",
                "internalId": 5705,
                "name": "Campo Grande - Av. Brasil",
                "position": {
                  "latitude": 38.755629,
                  "longitude": -9.151437
                },
                "visible": true,
                "updateDate": "2019-03-20T17:47:40.000Z"
              }
            },
            {
              "id": 45734,
              "order": 9,
              "distance": 507,
              "stop": {
                "id": "5805",
                "internalId": 5805,
                "name": "Campo Grande Norte",
                "position": {
                  "latitude": 38.758587,
                  "longitude": -9.154029
                },
                "visible": true,
                "updateDate": "2019-02-13T17:46:55.000Z"
              }
            },
            {
              "id": 45735,
              "order": 10,
              "distance": 184,
              "stop": {
                "id": "5839",
                "internalId": 5839,
                "name": "Rua Agostinho Neto",
                "position": {
                  "latitude": 38.761764,
                  "longitude": -9.153835
                },
                "visible": true,
                "updateDate": "2008-12-05T17:51:30.000Z"
              }
            },
            {
              "id": 45736,
              "order": 11,
              "distance": 204,
              "stop": {
                "id": "5832",
                "internalId": 5832,
                "name": "Rua Agostinho Neto",
                "position": {
                  "latitude": 38.763235,
                  "longitude": -9.153458
                },
                "visible": true,
                "updateDate": "2008-12-05T17:49:44.000Z"
              }
            },
            {
              "id": 45737,
              "order": 12,
              "distance": 186,
              "stop": {
                "id": "5837",
                "internalId": 5837,
                "name": "Rua Amílcar Cabral",
                "position": {
                  "latitude": 38.764831,
                  "longitude": -9.152828
                },
                "visible": true,
                "updateDate": "2008-12-05T17:54:43.000Z"
              }
            },
            {
              "id": 45738,
              "order": 13,
              "distance": 184,
              "stop": {
                "id": "5838",
                "internalId": 5838,
                "name": "Alto Do Lumiar - Parque Europa",
                "position": {
                  "latitude": 38.766451,
                  "longitude": -9.152747
                },
                "visible": true,
                "updateDate": "2008-12-05T13:13:23.000Z"
              }
            },
            {
              "id": 45739,
              "order": 14,
              "distance": 484,
              "stop": {
                "id": "11518",
                "internalId": 50154,
                "name": "Av. Helena Vieira Da Silva",
                "position": {
                  "latitude": 38.76688,
                  "longitude": -9.151035
                },
                "visible": true,
                "updateDate": "2012-12-13T16:30:55.000Z"
              }
            },
            {
              "id": 45740,
              "order": 15,
              "distance": 1015,
              "stop": {
                "id": "11503",
                "internalId": 11503,
                "name": "Alta De Lisboa - Qta Conchas",
                "position": {
                  "latitude": 38.769864,
                  "longitude": -9.148551
                },
                "visible": true,
                "updateDate": "2014-10-15T11:16:54.000Z"
              }
            },
            {
              "id": 45741,
              "order": 16,
              "distance": 164,
              "stop": {
                "id": "11512",
                "internalId": 11512,
                "name": "Rua Helena Vaz Da Silva",
                "position": {
                  "latitude": 38.773239,
                  "longitude": -9.153054
                },
                "visible": true,
                "updateDate": "2014-03-03T14:57:46.000Z"
              }
            },
            {
              "id": 45742,
              "order": 17,
              "distance": 418,
              "stop": {
                "id": "11507",
                "internalId": 11507,
                "name": "Av. Carlos Paredes",
                "position": {
                  "latitude": 38.774247,
                  "longitude": -9.152179
                },
                "visible": true,
                "updateDate": "2019-03-26T17:42:25.000Z"
              }
            },
            {
              "id": 45743,
              "order": 18,
              "distance": 352,
              "stop": {
                "id": "11501",
                "internalId": 11501,
                "name": "Estação Musgueira",
                "position": {
                  "latitude": 38.774614,
                  "longitude": -9.147396
                },
                "visible": false,
                "updateDate": "2019-02-27T20:47:42.067Z"
              }
            },
            {
              "id": 45744,
              "order": 19,
              "distance": 422,
              "stop": {
                "id": "11509",
                "internalId": 11509,
                "name": "Esc. Pintor Almada Negreiros",
                "position": {
                  "latitude": 38.77728,
                  "longitude": -9.146429
                },
                "visible": true,
                "updateDate": "2019-03-26T17:42:46.000Z"
              }
            },
            {
              "id": 45745,
              "order": 20,
              "distance": 308,
              "stop": {
                "id": "6018",
                "internalId": 6018,
                "name": "Vale Castanheira",
                "position": {
                  "latitude": 38.779864,
                  "longitude": -9.148379
                },
                "visible": true,
                "updateDate": "2019-03-21T17:06:22.000Z"
              }
            },
            {
              "id": 45746,
              "order": 21,
              "distance": 254,
              "stop": {
                "id": "6029",
                "internalId": 50156,
                "name": "Pç D. António Ribeiro",
                "position": {
                  "latitude": 38.780489,
                  "longitude": -9.151516
                },
                "visible": true,
                "updateDate": "2019-03-21T12:08:43.000Z"
              }
            },
            {
              "id": 45747,
              "order": 22,
              "distance": 527,
              "stop": {
                "id": "6020",
                "internalId": 6020,
                "name": "Av. Nuno Kruz Abecassis",
                "position": {
                  "latitude": 38.779634,
                  "longitude": -9.151657
                },
                "visible": true,
                "updateDate": "2019-02-14T16:27:41.000Z"
              }
            },
            {
              "id": 45748,
              "order": 23,
              "distance": 329,
              "stop": {
                "id": "11511",
                "internalId": 11511,
                "name": "Esc. Pintor Almada Negreiros",
                "position": {
                  "latitude": 38.77713,
                  "longitude": -9.146463
                },
                "visible": true,
                "updateDate": "2019-03-26T17:43:15.000Z"
              }
            },
            {
              "id": 45749,
              "order": 24,
              "distance": 881,
              "stop": {
                "id": "6016",
                "internalId": 6016,
                "name": "R. Melo Antunes",
                "position": {
                  "latitude": 38.779042,
                  "longitude": -9.144786
                },
                "visible": true,
                "updateDate": "2019-03-21T12:08:04.000Z"
              }
            },
            {
              "id": 45750,
              "order": 25,
              "distance": 222,
              "stop": {
                "id": "6014",
                "internalId": 6014,
                "name": "Igreja Charneca",
                "position": {
                  "latitude": 38.783622,
                  "longitude": -9.142553
                },
                "visible": true,
                "updateDate": "2019-03-20T18:07:07.000Z"
              }
            },
            {
              "id": 45751,
              "order": 26,
              "distance": 227,
              "stop": {
                "id": "6006",
                "internalId": 6006,
                "name": "Campo Amoreiras",
                "position": {
                  "latitude": 38.785447,
                  "longitude": -9.143196
                },
                "visible": true,
                "updateDate": "2019-03-20T18:05:09.000Z"
              }
            },
            {
              "id": 45752,
              "order": 27,
              "distance": 187,
              "stop": {
                "id": "6008",
                "internalId": 6008,
                "name": "Charneca",
                "position": {
                  "latitude": 38.78718,
                  "longitude": -9.144596
                },
                "visible": true,
                "updateDate": "2019-02-14T13:03:11.000Z"
              }
            },
            {
              "id": 45753,
              "order": 28,
              "distance": 257,
              "stop": {
                "id": "6010",
                "internalId": 6010,
                "name": "Qta. Pailepa",
                "position": {
                  "latitude": 38.78788,
                  "longitude": -9.146163
                },
                "visible": true,
                "updateDate": "2019-02-14T16:24:51.000Z"
              }
            },
            {
              "id": 45754,
              "order": 29,
              "distance": 426,
              "stop": {
                "id": "6002",
                "internalId": 6002,
                "name": "R. João Amaral",
                "position": {
                  "latitude": 38.787517,
                  "longitude": -9.149093
                },
                "visible": true,
                "updateDate": "2019-02-14T13:02:32.000Z"
              }
            },
            {
              "id": 45755,
              "order": 30,
              "distance": 240,
              "stop": {
                "id": "11602",
                "internalId": 11602,
                "name": "Estr. Forte (Escola)",
                "position": {
                  "latitude": 38.790396,
                  "longitude": -9.150642
                },
                "visible": true,
                "updateDate": "2019-03-26T17:44:03.000Z"
              }
            },
            {
              "id": 45756,
              "order": 31,
              "distance": 0,
              "stop": {
                "id": "11608",
                "internalId": 11608,
                "name": "Galinheiras",
                "position": {
                  "latitude": 38.79243,
                  "longitude": -9.150246
                },
                "visible": true,
                "updateDate": "2019-03-26T17:44:57.000Z"
              }
            }
          ]
        },
        {
          "id": 21510,
          "type": "DESC",
          "direction": "DESC",
          "connections": [
            {
              "id": 45757,
              "order": 1,
              "distance": 262,
              "stop": {
                "id": "11608",
                "internalId": 11608,
                "name": "Galinheiras",
                "position": {
                  "latitude": 38.79243,
                  "longitude": -9.150246
                },
                "visible": true,
                "updateDate": "2019-03-26T17:44:57.000Z"
              }
            },
            {
              "id": 45758,
              "order": 2,
              "distance": 454,
              "stop": {
                "id": "11601",
                "internalId": 11601,
                "name": "Estr. Forte (Escola)",
                "position": {
                  "latitude": 38.790751,
                  "longitude": -9.150757
                },
                "visible": true,
                "updateDate": "2019-03-26T17:43:49.000Z"
              }
            },
            {
              "id": 45759,
              "order": 3,
              "distance": 284,
              "stop": {
                "id": "6001",
                "internalId": 6001,
                "name": "R. João Amaral",
                "position": {
                  "latitude": 38.787328,
                  "longitude": -9.149174
                },
                "visible": true,
                "updateDate": "2019-03-20T17:58:00.000Z"
              }
            },
            {
              "id": 45760,
              "order": 4,
              "distance": 347,
              "stop": {
                "id": "6003",
                "internalId": 6003,
                "name": "Qta. Pailepa",
                "position": {
                  "latitude": 38.787847,
                  "longitude": -9.145979
                },
                "visible": true,
                "updateDate": "2019-02-14T13:02:48.000Z"
              }
            },
            {
              "id": 45761,
              "order": 5,
              "distance": 262,
              "stop": {
                "id": "6005",
                "internalId": 6005,
                "name": "Charneca",
                "position": {
                  "latitude": 38.78718,
                  "longitude": -9.142513
                },
                "visible": true,
                "updateDate": "2019-03-20T18:04:55.000Z"
              }
            },
            {
              "id": 45762,
              "order": 6,
              "distance": 261,
              "stop": {
                "id": "6009",
                "internalId": 6009,
                "name": "Campo Amoreiras",
                "position": {
                  "latitude": 38.785714,
                  "longitude": -9.142683
                },
                "visible": true,
                "updateDate": "2019-02-14T13:03:28.000Z"
              }
            },
            {
              "id": 45763,
              "order": 7,
              "distance": 858,
              "stop": {
                "id": "6011",
                "internalId": 6011,
                "name": "Igreja Charneca",
                "position": {
                  "latitude": 38.783408,
                  "longitude": -9.142625
                },
                "visible": true,
                "updateDate": "2019-03-20T18:05:59.000Z"
              }
            },
            {
              "id": 45764,
              "order": 8,
              "distance": 339,
              "stop": {
                "id": "6013",
                "internalId": 6013,
                "name": "R. Melo Antunes",
                "position": {
                  "latitude": 38.779201,
                  "longitude": -9.14468
                },
                "visible": true,
                "updateDate": "2019-03-20T18:06:33.000Z"
              }
            },
            {
              "id": 45765,
              "order": 9,
              "distance": 528,
              "stop": {
                "id": "11509",
                "internalId": 11509,
                "name": "Esc. Pintor Almada Negreiros",
                "position": {
                  "latitude": 38.77728,
                  "longitude": -9.146429
                },
                "visible": true,
                "updateDate": "2019-03-26T17:42:46.000Z"
              }
            },
            {
              "id": 45766,
              "order": 10,
              "distance": 108,
              "stop": {
                "id": "6019",
                "internalId": 6019,
                "name": "Av. Nuno Kruz Abecassis",
                "position": {
                  "latitude": 38.779807,
                  "longitude": -9.151581
                },
                "visible": true,
                "updateDate": "2019-02-14T16:26:48.000Z"
              }
            },
            {
              "id": 45767,
              "order": 11,
              "distance": 322,
              "stop": {
                "id": "6030",
                "internalId": 50344,
                "name": "Pç D. António Ribeiro",
                "position": {
                  "latitude": 38.780186,
                  "longitude": -9.151475
                },
                "visible": true,
                "updateDate": "2019-03-21T12:08:54.000Z"
              }
            },
            {
              "id": 45768,
              "order": 12,
              "distance": 734,
              "stop": {
                "id": "6015",
                "internalId": 6015,
                "name": "Vale Castanheira",
                "position": {
                  "latitude": 38.779915,
                  "longitude": -9.148587
                },
                "visible": true,
                "updateDate": "2019-03-21T17:06:19.000Z"
              }
            },
            {
              "id": 45769,
              "order": 13,
              "distance": 232,
              "stop": {
                "id": "11505",
                "internalId": 11505,
                "name": "Estação Musgueira",
                "position": {
                  "latitude": 38.774713,
                  "longitude": -9.149085
                },
                "visible": true,
                "updateDate": "2019-03-11T10:46:02.000Z"
              }
            },
            {
              "id": 45770,
              "order": 14,
              "distance": 221,
              "stop": {
                "id": "11510",
                "internalId": 11510,
                "name": "Av. Carlos Paredes",
                "position": {
                  "latitude": 38.774406,
                  "longitude": -9.151743
                },
                "visible": true,
                "updateDate": "2019-03-26T17:42:59.000Z"
              }
            },
            {
              "id": 45771,
              "order": 15,
              "distance": 1008,
              "stop": {
                "id": "11513",
                "internalId": 11513,
                "name": "Rua Helena Vaz Da Silva",
                "position": {
                  "latitude": 38.773111,
                  "longitude": -9.15322
                },
                "visible": true,
                "updateDate": "2014-03-03T14:58:07.000Z"
              }
            },
            {
              "id": 45772,
              "order": 16,
              "distance": 411,
              "stop": {
                "id": "11504",
                "internalId": 11504,
                "name": "Alta De Lisboa - Qta Conchas",
                "position": {
                  "latitude": 38.768801,
                  "longitude": -9.149068
                },
                "visible": true,
                "updateDate": "2014-10-15T11:17:09.000Z"
              }
            },
            {
              "id": 45773,
              "order": 17,
              "distance": 278,
              "stop": {
                "id": "11519",
                "internalId": 50157,
                "name": "Av. Helena Vieira Da Silva",
                "position": {
                  "latitude": 38.766867,
                  "longitude": -9.151683
                },
                "visible": true,
                "updateDate": "2012-12-13T16:30:46.000Z"
              }
            },
            {
              "id": 45774,
              "order": 18,
              "distance": 178,
              "stop": {
                "id": "5835",
                "internalId": 5835,
                "name": "Rua Manuel Marques",
                "position": {
                  "latitude": 38.766313,
                  "longitude": -9.154179
                },
                "visible": true,
                "updateDate": "2008-12-05T17:11:31.000Z"
              }
            },
            {
              "id": 45775,
              "order": 19,
              "distance": 200,
              "stop": {
                "id": "5836",
                "internalId": 5836,
                "name": "Rua Amílcar Cabral",
                "position": {
                  "latitude": 38.764728,
                  "longitude": -9.153885
                },
                "visible": true,
                "updateDate": "2014-03-03T12:23:41.000Z"
              }
            },
            {
              "id": 45776,
              "order": 20,
              "distance": 177,
              "stop": {
                "id": "5833",
                "internalId": 5833,
                "name": "Rua Agostinho Neto",
                "position": {
                  "latitude": 38.76295,
                  "longitude": -9.1535
                },
                "visible": true,
                "updateDate": "2008-12-05T18:11:31.000Z"
              }
            },
            {
              "id": 45777,
              "order": 21,
              "distance": 683,
              "stop": {
                "id": "5840",
                "internalId": 5840,
                "name": "Rua Agostinho Neto",
                "position": {
                  "latitude": 38.76175,
                  "longitude": -9.154117
                },
                "visible": true,
                "updateDate": "2008-12-05T17:52:45.000Z"
              }
            },
            {
              "id": 45778,
              "order": 22,
              "distance": 476,
              "stop": {
                "id": "5806",
                "internalId": 5806,
                "name": "Campo Grande Norte",
                "position": {
                  "latitude": 38.757628,
                  "longitude": -9.155279
                },
                "visible": true,
                "updateDate": "2019-03-20T17:48:13.000Z"
              }
            },
            {
              "id": 45779,
              "order": 23,
              "distance": 230,
              "stop": {
                "id": "5704",
                "internalId": 5704,
                "name": "Campo Grande - Av. Brasil",
                "position": {
                  "latitude": 38.753919,
                  "longitude": -9.152565
                },
                "visible": true,
                "updateDate": "2018-04-06T16:52:10.000Z"
              }
            },
            {
              "id": 45780,
              "order": 24,
              "distance": 379,
              "stop": {
                "id": "2008",
                "internalId": 2008,
                "name": "Campo Grande",
                "position": {
                  "latitude": 38.752122,
                  "longitude": -9.151244
                },
                "visible": true,
                "updateDate": "2018-11-02T11:41:01.000Z"
              }
            },
            {
              "id": 45781,
              "order": 25,
              "distance": 189,
              "stop": {
                "id": "2006",
                "internalId": 2006,
                "name": "Entrecampos Norte",
                "position": {
                  "latitude": 38.749116,
                  "longitude": -9.149208
                },
                "visible": true,
                "updateDate": "2018-11-02T11:38:06.000Z"
              }
            },
            {
              "id": 45782,
              "order": 26,
              "distance": 316,
              "stop": {
                "id": "2002",
                "internalId": 2002,
                "name": "Entrecampos",
                "position": {
                  "latitude": 38.747602,
                  "longitude": -9.148474
                },
                "visible": true,
                "updateDate": "2018-11-02T11:35:32.000Z"
              }
            },
            {
              "id": 45783,
              "order": 27,
              "distance": 329,
              "stop": {
                "id": "2019",
                "internalId": 2019,
                "name": "Estação Entrecampos",
                "position": {
                  "latitude": 38.744815,
                  "longitude": -9.1477
                },
                "visible": true,
                "updateDate": "2018-11-02T11:58:14.000Z"
              }
            },
            {
              "id": 45784,
              "order": 28,
              "distance": 417,
              "stop": {
                "id": "1902",
                "internalId": 1902,
                "name": "Campo Pequeno",
                "position": {
                  "latitude": 38.741922,
                  "longitude": -9.147004
                },
                "visible": true,
                "updateDate": "2018-02-20T10:25:08.000Z"
              }
            },
            {
              "id": 45785,
              "order": 29,
              "distance": 688,
              "stop": {
                "id": "1814",
                "internalId": 1814,
                "name": "Av. Da República",
                "position": {
                  "latitude": 38.738267,
                  "longitude": -9.146059
                },
                "visible": true,
                "updateDate": "2011-09-13T16:40:32.000Z"
              }
            },
            {
              "id": 45786,
              "order": 30,
              "distance": 0,
              "stop": {
                "id": "1807",
                "internalId": 1807,
                "name": "Saldanha",
                "position": {
                  "latitude": 38.733918,
                  "longitude": -9.144647
                },
                "visible": true,
                "updateDate": "2011-09-13T16:39:01.000Z"
              }
            }
          ]
        }
      ]
    }
  ]
}